City_ID,City,Lat,Lng,Max Temp,Humidity,Cloudiness,Wind Speed,Country,Date
0,mahina,-17.5065,-149.489,26.87,74,75,1.03,PF,1702882223
1,wailua homesteads,22.0669,-159.378,20.44,87,75,7.2,US,1702882224
2,grand-bassam,5.2118,-3.7388,25.98,85,9,0.93,CI,1702882224
3,selkirk,50.1436,-96.8845,-12.96,77,61,1.34,CA,1702882225
4,edinburgh of the seven seas,-37.0676,-12.3116,12.44,68,10,1.07,SH,1702882225
5,dauphin,51.1494,-100.0502,-16.92,85,0,1.03,CA,1702882226
6,iqaluit,63.7506,-68.5145,-25.15,64,40,3.09,CA,1702882226
7,hermanus,-34.4187,19.2345,19.1,71,98,4.55,ZA,1702882227
8,thompson,55.7435,-97.8558,-19.91,84,75,3.6,CA,1702882227
9,komsomolets,53.7453,62.0708,-10.31,95,79,3.42,KZ,1702882228
10,tiksi,71.6872,128.8694,-26.96,98,90,5.55,RU,1702882228
11,barclayville,4.6797,-8.2339,24.44,90,20,1.53,LR,1702882229
12,margaret river,-33.95,115.0667,22.15,47,15,8.58,AU,1702882229
13,mityana,0.4175,32.0228,26.94,51,30,1.0,UG,1702882230
14,port-aux-francais,-49.35,70.2167,5.36,78,23,11.18,TF,1702882230
15,bamboo flat,11.7,92.7167,29.46,68,56,4.85,IN,1702882231
16,urangan,-25.3,152.9,26.62,73,12,5.39,AU,1702882231
17,kodiak,57.79,-152.4072,-4.27,80,0,2.57,US,1702882232
18,santa ines,-3.6667,-45.38,23.31,96,37,0.47,BR,1702882233
19,hawaiian paradise park,19.5933,-154.9731,19.46,96,83,3.81,US,1702882234
20,portland,45.5234,-122.6762,7.19,73,75,6.71,US,1702882234
21,porto novo,6.4965,2.6036,24.9,76,10,1.61,BJ,1702882235
22,grytviken,-54.2811,-36.5092,1.38,83,25,4.37,GS,1702882235
23,puerto natales,-51.7236,-72.4875,6.1,87,88,2.09,CL,1702882236
24,waitangi,-43.9535,-176.5597,13.23,91,66,1.79,NZ,1702881961
25,college,64.8569,-147.8028,-12.18,85,100,0.0,US,1702882237
26,qaqortoq,60.7167,-46.0333,-4.37,91,92,3.61,GL,1702882237
27,hithadhoo,-0.6,73.0833,28.7,75,19,5.02,MV,1702882238
28,malkinia gorna,52.6922,22.0284,6.61,91,100,6.92,PL,1702882147
29,tzucacab,20.0667,-89.05,18.38,94,76,1.06,MX,1702882239
30,kidal,18.4411,1.4078,14.1,29,79,5.97,ML,1702882239
31,imbituba,-28.24,-48.6703,23.33,94,88,5.02,BR,1702882240
32,adamstown,-25.066,-130.1015,22.84,82,83,5.62,PN,1702882240
33,touros,-5.1989,-35.4608,25.87,82,100,3.72,BR,1702882241
34,klyuchi,52.2667,79.1667,-15.28,71,12,4.48,RU,1702882241
35,albany,42.6001,-73.9662,9.79,92,100,1.3,US,1702882242
36,powell river,49.8496,-124.5361,8.0,96,100,0.24,CA,1702882242
37,kavaratti,10.5669,72.642,27.13,82,94,7.8,IN,1702882243
38,usogorsk,63.4106,48.6872,-11.64,95,100,3.23,RU,1702882243
39,saint-joseph,-21.3667,55.6167,29.5,72,91,0.86,RE,1702882244
40,auki,-8.7676,160.7034,27.02,73,80,1.26,SB,1702882245
41,kruisfontein,-34.0033,24.7314,22.71,52,0,5.28,ZA,1702882245
42,hamilton,39.1834,-84.5333,5.69,87,100,6.26,US,1702882245
43,mochudi,-24.4167,26.15,25.33,50,50,3.2,BW,1702882246
44,libenge,3.65,18.6333,28.64,33,17,2.2,CD,1702882247
45,mar del plata,-38.0023,-57.5575,17.01,85,0,3.6,AR,1702882013
46,isafjordur,66.0755,-23.124,-3.38,84,100,2.3,IS,1702882247
47,vorgashor,67.5833,63.95,-17.8,89,98,5.53,RU,1702882248
48,vila franca do campo,37.7167,-25.4333,19.23,89,100,3.74,PT,1702882249
49,bethel,41.3712,-73.414,14.17,88,100,4.63,US,1702882249
50,west island,-12.1568,96.8225,28.99,65,75,4.12,CC,1702882250
51,douentza,14.9951,-2.9517,16.93,22,100,2.87,ML,1702882045
52,vernon,50.2581,-119.2691,4.23,84,100,0.89,CA,1702882251
53,dingcheng,32.1272,115.0394,0.21,73,96,2.45,CN,1702882251
54,whitehorse,60.7161,-135.0538,-0.57,54,40,1.03,CA,1702882252
55,taltal,-25.4,-70.4833,17.38,85,6,1.42,CL,1702882252
56,ciudad lazaro cardenas,17.9583,-102.2,24.16,89,6,1.57,MX,1702882253
57,zayed city,24.3768,54.589,25.03,26,0,2.06,AE,1702882253
58,udachny,66.4167,112.4,-33.89,100,91,1.25,RU,1702882254
59,gadzhiyevo,69.2551,33.3362,-6.63,90,99,6.41,RU,1702882254
60,port-saint-louis-du-rhone,43.3833,4.8,2.13,87,0,3.09,FR,1702882255
61,toliara,-23.35,43.6667,31.07,50,15,4.54,MG,1702882256
62,vilyuchinsk,52.9306,158.4028,2.18,84,100,10.29,RU,1702882256
63,necochea,-38.5473,-58.7368,13.93,75,2,7.95,AR,1702882257
64,zhosaly,45.4878,64.0781,2.87,74,100,5.64,KZ,1702882257
65,bay roberts,47.5999,-53.2648,2.51,86,100,2.24,CA,1702882258
66,chui,-33.6971,-53.4616,19.7,92,99,3.96,UY,1702882258
67,mount gambier,-37.8333,140.7667,14.63,98,100,2.64,AU,1702882259
68,ushuaia,-54.8,-68.3,7.81,71,0,6.17,AR,1702882147
69,stanley,54.868,-1.6985,12.01,86,0,7.72,GB,1702882260
70,longyearbyen,78.2186,15.6401,-1.09,74,40,8.75,SJ,1702882260
71,port alfred,-33.5906,26.891,21.21,73,5,3.58,ZA,1702882261
72,port mathurin,-19.6833,63.4167,26.76,80,46,7.03,MU,1702882261
73,oriximina,-1.7656,-55.8661,25.45,83,52,0.68,BR,1702882262
74,mahanoro,-19.9,48.8,29.5,67,100,3.19,MG,1702882262
75,cootamundra,-34.65,148.0333,31.64,15,100,2.58,AU,1702882263
76,manokwari,-0.8667,134.0833,28.13,78,70,2.09,ID,1702882264
77,al hasakah,36.5024,40.7477,9.63,34,0,5.06,SY,1702882093
78,taoudenni,22.6783,-3.9836,10.57,44,60,7.64,ML,1702882265
79,okhotsk,59.3833,143.3,-21.42,79,16,9.18,RU,1702882265
80,mozhaysk,55.5019,36.0272,0.64,89,100,4.56,RU,1702882249
81,tralee,52.2704,-9.7026,11.83,98,100,2.27,IE,1702882266
82,huron,41.1501,-82.5499,5.01,92,100,4.1,US,1702882266
83,likasi,-10.9814,26.7333,23.3,81,100,0.67,CD,1702882267
84,santyoku,37.4406,129.1708,-0.22,32,100,1.1,KR,1702882267
85,dakhla,23.6848,-15.958,16.01,36,81,8.23,EH,1702882269
86,luganville,-15.5333,167.1667,27.08,81,38,2.83,VU,1702882269
87,blackmans bay,-43.0167,147.3167,20.07,82,100,2.45,AU,1702882270
88,ilulissat,69.2167,-51.1,-13.99,63,100,4.84,GL,1702882270
89,farasan,16.7022,42.1183,26.47,68,10,7.18,SA,1702882222
90,pisco,-13.7,-76.2167,20.03,88,0,4.63,PE,1702882271
91,berezovyy,51.6667,135.7,-16.49,98,100,0.97,RU,1702882272
92,colonia,50.9333,6.95,5.46,88,0,1.77,DE,1702882103
93,port elizabeth,-33.918,25.5701,23.94,64,20,7.2,ZA,1702882214
94,tobelo,1.7284,128.0095,29.64,68,69,2.07,ID,1702882273
95,huarmey,-10.0681,-78.1522,21.18,88,100,3.71,PE,1702882273
96,shashemene,7.2,38.6,19.72,52,12,2.14,ET,1702882274
97,utrik,11.2278,169.8474,26.79,81,44,11.22,MH,1702882275
98,sharkawshchyna,55.3713,27.4706,2.84,100,100,4.82,BY,1702882275
99,puerto ayora,-0.7393,-90.3518,23.42,88,100,3.29,EC,1702882276
100,hadibu,12.65,54.0333,25.73,74,88,7.82,YE,1702882276
101,ouadda,8.0777,22.4007,29.17,24,100,3.96,CF,1702882277
102,tromso,69.6496,18.957,1.01,86,75,1.03,NO,1702882009
103,aqadyr,48.2553,72.8483,-7.29,54,72,7.34,KZ,1702882278
104,badger,64.8,-147.5333,-12.23,88,40,0.0,US,1702882278
105,hami,42.8,93.45,-9.62,55,0,4.04,CN,1702882279
106,taguatinga,-12.3857,-46.5711,24.42,55,68,0.18,BR,1702882279
107,bubaque,11.2833,-15.8333,26.74,42,100,8.38,GW,1702882280
108,motygino,58.1831,94.7592,-30.12,95,83,0.89,RU,1702882280
109,takab,36.4009,47.1133,2.26,76,63,2.2,IR,1702882048
110,bredasdorp,-34.5322,20.0403,19.13,67,98,2.83,ZA,1702882281
111,tazacorte,28.629,-17.9293,17.54,74,100,4.12,ES,1702882282
112,severnoye,56.3491,78.3619,-18.9,86,100,5.81,RU,1702882283
113,ribeira grande,38.5167,-28.7,17.65,98,100,4.02,PT,1702882284
114,sinabang,2.4803,96.3801,25.73,88,100,2.04,ID,1702882285
115,sompeta,18.9333,84.6,25.06,43,9,4.46,IN,1702882285
116,shihezi,44.3,86.0333,-13.8,77,6,1.28,CN,1702882286
117,minas de marcona,-15.2119,-75.1103,15.65,86,73,4.17,PE,1702882286
118,avarua,-21.2078,-159.775,24.03,94,75,8.75,CK,1702882287
119,punta arenas,-53.15,-70.9167,9.06,71,75,7.72,CL,1702882163
120,petropavlovsk-kamchatsky,53.0452,158.6483,1.36,84,75,17.43,RU,1702882086
121,phumi veal sre,10.9808,104.7783,32.0,50,17,3.09,KH,1702882288
122,sao martinho,39.5144,-9.1311,8.58,78,0,2.45,PT,1702882289
123,mont-tremblant,46.1949,-74.6264,4.21,100,100,0.0,CA,1702882290
124,acapulco de juarez,16.8634,-99.8901,25.08,85,27,2.36,MX,1702882290
125,jieshi,22.8134,115.8257,19.92,69,16,8.43,CN,1702882291
126,east london,-33.0153,27.9116,20.52,77,75,4.63,ZA,1702882208
127,forster,-32.1667,152.5167,26.83,84,12,8.28,AU,1702882292
128,bangarmau,26.9,80.2167,22.36,25,74,4.32,IN,1702882293
129,sarukhan,40.2905,45.1306,-5.02,54,19,0.73,AM,1702882293
130,bel ombre,-4.6167,55.4167,29.91,74,40,2.57,SC,1702882043
131,cordoba,-31.4135,-64.1811,20.13,100,100,3.09,AR,1702882294
132,ulsteinvik,62.3432,5.8487,7.95,86,100,8.05,NO,1702882294
133,fortaleza,-3.7227,-38.5247,27.07,75,40,2.06,BR,1702882207
134,lockwood,45.8191,-108.4149,0.14,64,0,1.54,US,1702882295
135,ilha solteira,-20.4328,-51.3425,27.96,36,97,0.46,BR,1702882296
136,suva,-18.1416,178.4415,27.71,83,75,5.14,FJ,1702882297
137,bilibino,68.0546,166.4372,-33.5,99,99,0.68,RU,1702882297
138,south lake tahoe,38.9332,-119.9844,4.86,83,100,0.0,US,1702882298
139,anadyr,64.75,177.4833,-23.72,84,0,6.0,RU,1702882298
140,leh,34.1667,77.5833,-6.92,46,5,1.5,IN,1702882299
141,taksimo,56.3444,114.8794,-25.63,88,100,0.22,RU,1702882299
142,campo gallo,-26.5833,-62.85,24.86,80,100,1.99,AR,1702882300
143,garoowe,8.4054,48.4845,26.42,31,6,7.6,SO,1702882300
144,grande prairie,55.1667,-118.8027,4.1,65,100,4.63,CA,1702882301
145,hue,16.4667,107.6,25.06,78,75,4.63,VN,1702882301
146,vorkuta,67.5,64.0,-17.38,88,98,5.83,RU,1702882302
147,plettenberg bay,-34.0527,23.3716,21.5,59,0,1.81,ZA,1702882302
148,general acha,-37.377,-64.6043,11.03,72,2,8.13,AR,1702882303
149,alice springs,-23.7,133.8833,42.75,7,12,5.14,AU,1702882303
150,edeleny,48.3,20.7333,0.38,97,55,0.81,HU,1702882304
151,rio grande,-32.035,-52.0986,23.86,94,28,3.84,BR,1702882261
152,ventspils,57.3894,21.5606,6.96,100,100,6.17,LV,1702882295
153,greymouth,-42.4667,171.2,14.42,68,9,3.26,NZ,1702882305
154,kitimat,54.0524,-128.6534,-0.79,99,100,0.69,CA,1702882306
155,khandyga,62.6667,135.6,-47.07,100,98,0.47,RU,1702882306
156,alofi,-19.0595,-169.9187,26.94,78,44,7.2,NU,1702882307
157,invercargill,-46.4,168.35,13.77,63,85,2.14,NZ,1702882307
158,beledweyne,4.7358,45.2036,29.37,38,9,7.97,SO,1702882308
159,shenjiamen,29.9576,122.298,10.12,86,100,1.2,CN,1702882308
160,smithville,39.3869,-94.5811,4.35,75,0,3.09,US,1702882309
161,staryy oskol,51.2967,37.8417,0.91,98,100,6.26,RU,1702882146
162,trairi,-3.2778,-39.2689,25.09,89,100,1.72,BR,1702882310
163,flying fish cove,-10.4217,105.6791,27.82,65,10,4.63,CX,1702882311
164,olonkinbyen,70.9221,-8.7187,-2.61,76,98,2.98,SJ,1702882311
165,bako,5.7833,36.5667,25.31,44,26,0.89,ET,1702882311
166,fale old settlement,-9.3852,-171.2468,29.1,74,95,3.23,TK,1702882312
167,brookings,44.3114,-96.7984,-3.79,81,0,4.63,US,1702882312
168,aasiaat,68.7098,-52.8699,-13.36,72,100,7.86,GL,1702882313
169,labrador city,52.9463,-66.9114,-1.05,86,100,7.72,CA,1702882313
170,at taj,24.2049,23.2857,13.91,49,13,5.86,LY,1702882314
171,pauini,-7.7136,-66.9764,22.04,99,96,0.89,BR,1702882314
172,gamba,-2.65,10.0,24.71,88,100,0.65,GA,1702882315
173,mengcheng chengguanzhen,33.2661,116.566,1.5,54,100,2.27,CN,1702882316
174,zaozersk,69.4005,32.4476,-5.23,88,93,7.48,RU,1702882316
175,ancud,-41.8697,-73.8203,5.86,85,3,2.79,CL,1702882317
176,kone,-21.0595,164.8658,27.16,63,100,2.9,NC,1702882318
177,ghadamis,30.1337,9.5007,8.79,82,100,5.02,LY,1702882319
178,hobyo,5.3505,48.5268,27.54,63,37,10.77,SO,1702882319
179,bowen,-20.0167,148.2333,27.19,72,76,7.26,AU,1702882320
180,sakakah,29.9697,40.2064,12.76,36,100,2.99,SA,1702882320
181,bol,13.4586,14.7147,21.92,39,0,8.22,TD,1702882321
182,praia,14.9215,-23.5087,23.3,73,40,6.17,CV,1702882321
183,lebu,-37.6167,-73.65,9.19,76,2,8.15,CL,1702882322
184,bari sadri,24.4167,74.4667,22.61,29,30,4.18,IN,1702882323
185,extrema,-22.8547,-46.3183,16.87,86,100,1.78,BR,1702882324
186,port macquarie,-31.4333,152.9167,26.61,80,93,8.01,AU,1702882324
187,antsiranana,-12.2787,49.2917,31.42,58,40,3.09,MG,1702882325
188,laojunmiao,39.8333,97.7333,-9.91,63,2,1.76,CN,1702882325
189,pitimbu,-7.4706,-34.8086,25.33,80,100,3.57,BR,1702882326
190,mamuju,-2.6748,118.8885,29.47,73,95,2.39,ID,1702882326
191,emerald,-23.5333,148.1667,36.18,23,29,4.84,AU,1702882327
192,talnakh,69.4865,88.3972,-16.82,79,100,7.06,RU,1702882327
193,george town,5.4112,100.3354,31.96,70,20,4.63,MY,1702882328
194,pimentel,-6.8367,-79.9342,22.16,78,0,7.72,PE,1702882328
195,la passe,45.5549,-0.8967,2.77,74,0,1.66,FR,1702882329
196,rio de janeiro,-22.9028,-43.2075,25.0,88,0,2.06,BR,1702882329
197,terbuny,52.1389,38.2789,0.27,97,100,4.78,RU,1702882330
198,beinamar,8.6698,15.3813,24.92,18,51,2.66,TD,1702882330
199,peniche,39.3558,-9.3811,8.58,84,0,3.38,PT,1702882331
200,goundam,16.4145,-3.6708,14.17,24,100,6.49,ML,1702882331
201,port shepstone,-30.7414,30.455,24.6,79,100,10.0,ZA,1702882332
202,susuman,62.7833,148.1667,-31.6,100,100,0.33,RU,1702882332
203,mersing,2.4312,103.8405,28.95,79,40,5.66,MY,1702882333
204,papatowai,-46.5619,169.4708,13.48,67,74,2.06,NZ,1702882334
205,akniste,56.1615,25.7478,3.52,99,100,3.79,LV,1702882334
206,enewetak,11.3474,162.3373,27.29,82,5,10.84,MH,1702882335
207,ormara,25.2088,64.6357,23.24,39,0,3.8,PK,1702882335
208,yelizovo,53.1873,158.3805,2.11,51,75,6.0,RU,1702882336
209,ketchikan,55.3422,-131.6461,5.99,93,100,0.0,US,1702882337
210,jacmel,18.2342,-72.5347,23.95,89,33,1.76,HT,1702882337
211,san antonio de pale,-1.4014,5.6325,25.18,91,100,2.62,GQ,1702882338
212,cottage grove,44.8277,-92.9438,-1.66,63,40,9.26,US,1702882338
213,iskateley,67.6803,53.1512,-13.88,91,100,8.49,RU,1702882339
214,la'ie,21.6477,-157.9253,23.98,70,100,6.89,US,1702882339
215,murashi,59.3999,48.9615,-7.01,96,100,1.98,RU,1702882340
216,iquique,-20.2208,-70.1431,20.02,84,66,1.02,CL,1702882074
217,jamestown,42.097,-79.2353,7.77,100,100,3.09,US,1702882341
218,preobrazheniye,42.9019,133.9064,-11.89,47,0,4.41,RU,1702882342
219,nar'yan-mar,67.6713,53.087,-13.83,91,100,8.49,RU,1702882342
220,sitka,57.0531,-135.33,2.94,81,75,2.57,US,1702882343
221,woolgoolga,-30.1106,153.2007,26.93,87,59,5.88,AU,1702882344
222,yellowknife,62.456,-114.3525,-15.71,98,100,6.17,CA,1702882344
223,vikhorevka,56.1201,101.1636,-29.23,86,100,2.24,RU,1702882345
224,chifeng,42.2683,118.9636,-13.11,74,6,1.62,CN,1702882345
225,walvis bay,-22.9575,14.5053,16.72,82,20,4.12,NA,1702882346
226,pangai,-19.8,-174.35,28.06,78,75,8.23,TO,1702882347
227,hwange,-18.3693,26.5019,28.65,52,83,3.11,ZW,1702882347
228,mejit,10.2753,170.8646,26.98,81,100,11.5,MH,1702882348
229,zabaykal'sk,49.6333,117.3167,-29.97,94,13,0.89,RU,1702882348
230,broken hill,-31.95,141.4333,37.97,6,100,9.11,AU,1702882349
231,arraial do cabo,-22.9661,-42.0278,23.34,93,3,5.88,BR,1702882349
232,colesberg,-30.72,25.0972,25.74,31,16,2.64,ZA,1702882350
233,port saint john's,-31.6229,29.5448,22.24,82,100,6.31,ZA,1702882350
234,altai,46.3722,96.2583,-25.85,84,100,2.51,MN,1702882351
235,sao gabriel da cachoeira,-0.1303,-67.0892,22.84,99,100,0.48,BR,1702882351
236,darab,28.7519,54.5444,15.97,17,6,1.72,IR,1702882352
237,san ignacio,17.1561,-89.0714,16.08,100,0,0.0,BZ,1702882352
238,port douglas,-16.4833,145.4667,24.26,87,100,6.73,AU,1702882353
239,mukalla,14.5425,49.1242,26.13,17,74,2.03,YE,1702882353
240,coahuayana de hidalgo,18.7,-103.6583,23.15,93,42,1.74,MX,1702882081
241,chingirlau,51.095,54.0814,-6.85,93,100,7.21,KZ,1702882297
242,georgetown,5.4112,100.3354,31.96,70,20,4.63,MY,1702882355
243,carnarvon,-24.8667,113.6333,24.82,67,3,6.77,AU,1702882355
244,san juan de miraflores,-12.1629,-76.9635,21.21,84,100,3.39,PE,1702882355
245,ati,13.2154,18.3353,23.98,26,5,5.77,TD,1702882356
246,ola,59.5833,151.2833,-20.54,80,100,6.66,RU,1702882356
247,juegang,32.3174,121.1855,3.75,96,100,5.18,CN,1702882357
248,shizuishan,39.2333,106.7694,-4.58,44,0,2.7,CN,1702882357
249,takhatgarh,25.3333,73.0,24.49,26,2,2.96,IN,1702882358
250,ismailia,30.6043,32.2723,15.04,82,40,0.0,EG,1702882358
251,tadjourah,12.0,42.5,23.88,51,100,6.12,DJ,1702882359
252,siwa oasis,29.2041,25.5195,16.26,68,11,4.68,EG,1702882360
253,cabo san lucas,22.8909,-109.9124,23.2,89,100,0.66,MX,1702882361
254,muisne,0.6,-80.0333,24.89,91,99,2.83,EC,1702882361
255,lauro de freitas,-12.8944,-38.3272,27.01,74,40,3.09,BR,1702882362
256,kirakira,-10.4544,161.9205,26.8,79,99,2.01,SB,1702882362
257,constantia,44.1833,28.65,2.61,69,98,6.89,RO,1702882312
258,dudinka,69.4058,86.1778,-17.4,83,100,13.41,RU,1702882363
259,weno,7.4515,151.8468,28.19,81,58,7.12,FM,1702882363
260,mawu,29.5923,107.3139,4.0,73,100,1.31,CN,1702882364
261,muynoq,43.7683,59.0214,1.74,94,100,8.23,UZ,1702882175
262,turpan,42.9333,89.1667,-4.84,35,0,0.74,CN,1702881908
263,calpulalpan,19.5833,-98.5833,7.75,50,0,0.82,MX,1702882366
264,la junta,37.985,-103.5438,-0.84,74,0,4.63,US,1702882366
265,sand springs,36.1398,-96.1089,8.89,69,0,1.34,US,1702882366
266,breckenridge,32.7557,-98.9023,9.59,93,0,3.49,US,1702882367
267,nova vicosa,-17.8919,-39.3719,23.49,90,94,2.41,BR,1702882367
268,plastun,44.7561,136.2939,-17.22,56,1,5.59,RU,1702882368
269,timbo,-26.8233,-49.2717,24.95,98,100,0.45,BR,1702882368
270,kristiansund,63.1115,7.732,7.36,76,75,6.69,NO,1702882154
271,lai chau,22.3997,103.4517,23.18,51,2,2.06,VN,1702882369
272,saipan,15.1355,145.701,26.39,89,100,9.77,MP,1702882369
273,egilsstadir,65.2653,-14.3948,-3.05,74,0,1.03,IS,1702882370
274,odda,60.0691,6.5457,7.1,93,100,2.63,NO,1702882370
275,changping,40.2186,116.2197,-6.2,73,17,1.79,CN,1702882371
276,san matias,-16.3667,-58.4,27.88,56,99,2.79,BO,1702882371
277,al kharijah,25.4514,30.5464,18.32,55,100,5.18,EG,1702882372
278,qujing,25.4833,103.7833,19.62,32,2,10.46,CN,1702882240
279,al burayqah,30.4062,19.5739,15.17,82,2,5.97,LY,1702882373
280,valparaiso,-33.0393,-71.6273,10.8,71,0,0.0,CL,1702882373
281,karratha,-20.7377,116.8463,29.79,47,3,10.28,AU,1702882373
282,atafu village,-8.5421,-172.5159,29.52,69,100,2.95,TK,1702882374
283,coquimbo,-29.9533,-71.3436,14.85,88,0,1.54,CL,1702882365
284,lihue,21.9789,-159.3672,20.77,83,75,7.2,US,1702882375
285,alvaraes,-3.2208,-64.8042,23.55,98,100,0.13,BR,1702882376
286,dubti,11.7361,41.0853,25.32,45,82,6.31,ET,1702882376
287,kuqa,41.7278,82.9364,-2.56,31,9,1.34,CN,1702882377
288,karaton,-6.3424,106.1045,33.49,45,100,3.13,ID,1702882378
289,barakani,-12.1356,44.4317,28.77,72,85,2.64,KM,1702882378
290,ust-nera,64.5667,143.2,-36.48,100,69,1.17,RU,1702882379
291,reggane,26.7158,0.1714,8.12,48,0,5.32,DZ,1702882379
292,bastrop,32.7562,-91.8724,5.82,93,0,0.0,US,1702882380
293,vilyuysk,63.7553,121.6247,-40.0,99,92,1.79,RU,1702882381
294,tokar,18.4254,37.729,28.47,52,0,9.59,SD,1702882381
295,puerto armuelles,8.2833,-82.8667,26.72,78,97,0.45,PA,1702882382
296,xilitla,21.3333,-98.9667,13.89,91,0,1.4,MX,1702882382
297,prado,-17.3411,-39.2208,23.14,91,18,2.53,BR,1702882383
298,oban,56.4127,-5.4706,11.32,99,100,3.65,GB,1702882383
299,chibougamau,49.9168,-74.3659,2.79,93,100,6.69,CA,1702882384
300,oswego,43.4501,-76.1497,8.1,99,100,1.79,US,1702882385
301,quelimane,-17.8786,36.8883,31.97,66,75,4.12,MZ,1702882386
302,katabu,-4.9333,122.5167,30.81,65,81,4.53,ID,1702882386
303,richards bay,-28.783,32.0377,27.38,75,78,5.52,ZA,1702882387
304,faya-largeau,17.9257,19.1043,19.72,24,13,10.18,TD,1702882387
305,kangding,30.0513,101.9603,8.35,39,25,1.5,CN,1702882388
306,tura,25.5198,90.2201,23.43,50,8,1.9,IN,1702882388
307,wanning,18.8003,110.3967,24.93,81,59,4.97,CN,1702882389
308,vila velha,-20.3297,-40.2925,23.97,88,0,1.54,BR,1702882389
309,keffi,8.8486,7.8736,25.14,23,3,1.65,NG,1702882390
310,macapa,0.0389,-51.0664,25.99,89,0,2.57,BR,1702882391
311,sumbawa besar,-8.5,117.4333,31.31,52,100,2.27,ID,1702882391
312,mormugao,15.4,73.8,30.59,51,40,4.12,IN,1702882392
313,souillac,-20.5167,57.5167,29.21,79,75,6.69,MU,1702882392
314,brisas de zicatela,15.8369,-97.0419,24.77,73,0,2.51,MX,1702882393
315,moose jaw,50.4001,-105.5344,-9.86,79,35,4.63,CA,1702882358
316,carutapera,-1.195,-46.02,25.59,86,100,2.01,BR,1702882394
317,vadul lui voda,47.0917,29.0756,5.64,61,100,2.98,MD,1702882394
318,teguise,29.0605,-13.564,13.12,72,40,3.6,ES,1702882202
319,happy valley-goose bay,53.3168,-60.3315,0.17,64,75,3.09,CA,1702882395
320,hammerfest,70.6634,23.6821,1.25,80,75,7.2,NO,1702882395
321,orenburg,51.7727,55.0988,-9.97,93,100,6.11,RU,1702882152
322,novo aripuana,-5.1206,-60.3797,23.41,98,78,0.95,BR,1702882396
323,kalmunai,7.4167,81.8167,25.49,91,94,6.01,LK,1702882397
324,fort bragg,35.139,-79.006,13.44,87,100,5.36,US,1702882397
325,mount pearl,47.5166,-52.7813,1.85,87,100,10.8,CA,1702882398
326,afaahiti,-17.75,-149.2833,25.93,81,100,4.48,PF,1702882399
327,chernyshevskiy,63.0128,112.4714,-39.63,100,32,0.93,RU,1702882399
328,usinsk,65.9939,57.5281,-13.79,90,100,9.32,RU,1702882400
329,newman,37.3138,-121.0208,11.25,93,100,1.79,US,1702882400
330,al bayda',32.7627,21.7551,10.78,85,98,1.33,LY,1702882400
331,port augusta,-32.5,137.7667,36.17,17,85,5.23,AU,1702882401
332,parfino,57.9731,31.6481,1.07,100,100,3.16,RU,1702882402
333,adigrat,14.277,39.462,14.39,56,13,1.77,ET,1702882402
334,prince george,53.9166,-122.753,0.69,97,0,3.09,CA,1702882385
335,nagqu,31.5,92.0,-6.04,47,0,2.39,CN,1702882403
336,boende,-0.2167,20.8667,24.71,84,100,0.92,CD,1702882404
337,minot,48.2325,-101.2963,-7.88,79,0,4.12,US,1702882404
338,remire-montjoly,4.9167,-52.2667,25.02,94,75,0.0,GF,1702882405
339,leer,53.2316,7.461,8.86,95,100,6.86,DE,1702882195
340,khulm,36.6974,67.6983,12.73,39,1,5.38,AF,1702882406
341,island harbour,50.724,-1.2758,11.2,83,61,2.68,GB,1702882406
342,tomatlan,19.9333,-105.25,21.17,94,100,0.86,MX,1702882407
343,tabas,33.5959,56.9244,14.72,25,100,1.63,IR,1702882407
344,saudarkrokur,65.7461,-19.6394,-1.05,92,100,5.25,IS,1702882408
345,sirinhaem,-8.5908,-35.1161,24.39,85,100,1.62,BR,1702882408
346,yeraliyev,43.2,51.65,1.07,79,100,0.33,KZ,1702882409
347,lionel town,17.8101,-77.2406,25.94,92,12,1.63,JM,1702882409
348,marataizes,-21.0433,-40.8244,22.26,91,1,2.23,BR,1702882410
349,daru,-9.0763,143.2092,28.12,84,100,2.91,PG,1702882410
350,fukuecho,32.6881,128.8419,7.2,61,75,5.66,JP,1702882411
351,krasnokamsk,58.0802,55.7541,-8.91,92,100,4.14,RU,1702882392
352,afua,-0.1567,-50.3867,24.59,93,100,1.61,BR,1702882412
353,verkhnevilyuysk,63.4453,120.3167,-39.42,100,98,1.83,RU,1702882413
354,new norfolk,-42.7826,147.0587,20.72,79,100,0.71,AU,1702882413
355,thunder bay,48.4001,-89.3168,-3.01,63,100,9.26,CA,1702882414
356,mertoyudan,-7.52,110.2264,31.68,46,14,4.61,ID,1702882414
357,punta cana,18.5818,-68.4043,25.87,83,75,5.14,DO,1702882315
358,jacksonville,30.3322,-81.6556,15.12,84,100,6.17,US,1702882352
359,thurso,58.5927,-3.5259,8.25,81,100,3.41,GB,1702882416
360,port isabel,26.0734,-97.2086,10.59,59,0,0.73,US,1702882416
361,kindu,-2.95,25.95,21.92,99,100,1.5,CD,1702882417
362,cockburn town,21.4612,-71.1419,26.26,88,100,11.65,TC,1702882417
363,akyazi,40.685,30.6222,-0.9,62,5,0.24,TR,1702882418
364,sao joao da barra,-21.6403,-41.0511,23.28,90,0,1.66,BR,1702882418
365,karaj,35.8355,51.0103,7.29,70,20,8.75,IR,1702882326
366,kittila,67.6647,24.8936,-2.92,80,0,3.6,FI,1702882420
367,kotido,2.9806,34.1331,26.89,40,92,8.86,UG,1702882420
368,gejiu,23.306,103.1635,15.88,54,23,3.97,CN,1702882421
369,rancagua,-34.1708,-70.7444,15.74,47,0,1.42,CL,1702882421
370,arenapolis,-14.4503,-56.8461,25.78,55,81,1.19,BR,1702882422
371,andergrove,-21.0833,149.1833,30.36,69,17,5.06,AU,1702882422
372,kargil,34.5667,76.1,-5.25,35,0,1.51,IN,1702882423
373,mount isa,-20.7333,139.5,39.87,25,15,5.66,AU,1702882423
374,lompoc,34.6391,-120.4579,15.38,42,0,0.0,US,1702882424
375,dunedin,-45.8742,170.5036,12.89,77,100,3.98,NZ,1702882425
376,atar,20.5169,-13.0499,13.34,26,96,8.66,MR,1702882426
377,cuamba,-14.8031,36.5372,32.21,41,100,2.4,MZ,1702882426
378,rzhev,56.2624,34.3282,0.17,99,100,4.02,RU,1702882427
379,tangalle,6.024,80.7911,27.09,76,41,2.41,LK,1702882427
380,prince rupert,54.3161,-130.3201,4.83,97,100,3.09,CA,1702882428
381,puerto aysen,-45.4,-72.7,4.72,100,97,0.77,CL,1702882429
382,zouerate,22.7187,-12.4521,10.38,31,46,6.54,MR,1702882430
383,lingdong,46.5669,131.1453,-21.56,89,76,2.73,CN,1702882430
384,cambria,35.5641,-121.0808,18.12,49,100,1.79,US,1702882431
385,sisimiut,66.9395,-53.6735,-11.02,73,100,7.11,GL,1702882432
386,palmer,42.1584,-72.3287,14.44,89,100,2.57,US,1702882432
387,bayganin,48.6947,55.8742,-8.85,87,10,3.43,KZ,1702882433
388,sebdou,34.637,-1.3314,3.61,92,98,2.01,DZ,1702882433
389,newport,51.5877,-2.9984,10.94,88,100,5.92,GB,1702882234
390,boguchany,58.3814,97.4531,-26.75,92,76,0.89,RU,1702882434
391,zinjibar,13.1287,45.3807,26.04,41,100,4.43,YE,1702882213
392,linares,-35.85,-71.6,8.01,68,0,2.74,CL,1702882435
393,impfondo,1.6381,18.0667,28.78,43,54,0.68,CG,1702882435
394,vadso,70.0744,29.7487,1.09,86,40,12.35,NO,1702882436
395,sabancuy,18.9667,-91.1833,22.79,54,100,1.5,MX,1702882436
396,beichengqu,40.4394,113.1536,-9.64,71,13,5.76,CN,1702882437
397,nizhniy ingash,56.2,96.53,-24.42,91,97,2.16,RU,1702882437
398,yabelo,4.8833,38.0833,21.24,37,24,9.18,ET,1702882438
399,port lincoln,-34.7333,135.8667,18.66,71,97,8.95,AU,1702882438
400,l'olleria,38.9167,-0.55,6.89,89,55,1.02,ES,1702882439
401,balabac,7.9868,117.0645,29.29,68,100,4.46,PH,1702882439
402,dodge city,37.7528,-100.0171,4.3,76,0,3.13,US,1702882440
403,turabah,21.2141,41.6331,17.36,17,6,6.79,SA,1702882440
404,safi,32.1667,-8.8333,8.1,61,0,1.58,MA,1702882441
405,morehead city,34.7229,-76.726,18.35,96,100,7.72,US,1702882442
406,antonio enes,-16.2325,39.9086,32.46,54,100,3.19,MZ,1702882442
407,porto uniao,-26.2381,-51.0783,17.89,97,53,0.54,BR,1702882443
408,neelankarai,12.9455,80.2575,29.03,70,75,7.72,IN,1702882444
409,nuuk,64.1835,-51.7216,-2.03,74,100,8.57,GL,1702882444
410,manismata,-2.4667,111.0333,30.28,66,80,2.23,ID,1702882445
411,kosh-agach,50.0,88.6667,-27.61,91,77,0.45,RU,1702882445
412,sechura,-5.5569,-80.8222,22.04,81,100,4.78,PE,1702882446
413,mirny,62.5353,113.9611,-35.43,66,32,3.13,RU,1702882446
414,lazaro cardenas,17.9583,-102.2,24.16,89,6,1.57,MX,1702882253
415,sabha,27.0377,14.4283,10.26,47,6,4.58,LY,1702882447
416,holma,9.9008,13.0567,24.05,19,7,1.49,NG,1702882448
417,kano,12.0001,8.5167,14.94,44,0,1.54,NG,1702882448
418,kununurra,-15.7667,128.7333,40.99,27,48,3.6,AU,1702882449
419,san patricio,28.017,-97.5169,12.92,60,0,1.85,US,1702882449
420,borba,-4.3878,-59.5939,23.26,98,85,0.81,BR,1702882450
421,tolanaro,-25.0319,46.9987,29.04,70,40,5.14,MG,1702882450
422,letlhakeng,-24.0944,25.0298,29.12,42,33,4.13,BW,1702882451
423,melekeok village,7.4957,134.6367,30.31,74,75,4.12,PW,1702882452
424,tambo,-14.8,-73.9167,5.12,77,100,0.91,PE,1702882452
425,labytnangi,66.6572,66.4183,-13.49,94,100,5.65,RU,1702882175
426,ringkobing,56.0901,8.244,8.9,98,75,6.69,DK,1702882453
427,pailin,12.849,102.6093,31.12,46,15,3.97,KH,1702882454
428,ixtapa,20.7,-105.2,21.54,69,100,1.16,MX,1702882454
429,kollum,53.277,6.1529,9.43,71,100,7.92,NL,1702882455
430,misratah,32.3754,15.0925,16.1,63,26,4.09,LY,1702882353
431,kathu,7.9178,98.3332,32.05,61,23,4.96,TH,1702882456
432,bairnsdale,-37.8333,147.6167,21.23,60,100,3.87,AU,1702882457
433,vera,-29.4593,-60.2126,26.59,64,92,3.09,AR,1702882457
434,sydney,-33.8679,151.2073,31.44,79,75,7.2,AU,1702881930
435,minbu,20.1833,94.8833,30.34,37,10,1.26,MM,1702882458
436,buzuluk,52.7807,52.2635,-6.02,94,100,5.49,RU,1702882355
437,betong,5.7743,101.0723,29.16,66,92,1.82,TH,1702882459
438,ceelbuur,4.685,46.6176,29.29,36,25,10.83,SO,1702882460
439,kapuskasing,49.4169,-82.4331,0.05,100,100,4.12,CA,1702882460
440,taunggyi,20.7833,97.0333,22.45,39,8,3.01,MM,1702882461
441,luorong,24.4058,109.6086,4.71,84,100,3.65,CN,1702882461
442,tupancireta,-29.0806,-53.8358,22.24,85,0,3.37,BR,1702882462
443,altay,47.8667,88.1167,-16.98,71,0,1.03,CN,1702882462
444,fort st. john,56.2499,-120.8529,1.94,64,40,6.69,CA,1702882463
445,undurkhaan,47.3194,110.6556,-20.16,82,100,3.84,MN,1702882463
446,namdrik,5.5994,168.1028,27.87,78,100,7.26,MH,1702882464
447,kyzyl-suu,42.3414,78.0056,-0.25,83,64,0.73,KG,1702882464
448,galdar,28.147,-15.6502,17.42,59,0,6.03,ES,1702882465
449,dodola,6.9833,39.1833,16.28,53,9,1.88,ET,1702882465
450,uturoa,-16.7333,-151.4333,26.71,74,100,0.7,PF,1702882466
451,rampura,30.25,75.2333,22.06,19,0,4.2,IN,1702882466
452,urumqi,43.801,87.6005,-20.47,78,0,1.0,CN,1702882466
453,kyshtovka,56.555,76.6271,-15.92,81,100,6.71,RU,1702882467
454,chonchi,-42.6128,-73.8092,3.95,95,7,1.0,CL,1702882467
455,shemgang,27.2169,90.6579,12.76,58,28,2.86,BT,1702882468
456,melfi,40.9965,15.6514,5.39,94,16,1.01,IT,1702882468
457,ar rutbah,33.0381,40.2848,11.37,75,0,3.5,IQ,1702882469
458,pacific grove,36.6177,-121.9166,15.28,86,100,0.45,US,1702882469
459,ciutadella,40.0011,3.8414,9.45,72,26,4.08,ES,1702882460
460,araripina,-7.5761,-40.4983,22.29,76,100,3.19,BR,1702882470
461,kralendijk,12.15,-68.2667,26.99,83,40,6.17,BQ,1702882470
462,saint-louis,16.3333,-15.0,17.8,19,100,4.99,SN,1702882471
463,stephenville,32.2207,-98.2023,11.54,71,0,2.57,US,1702882471
464,araguaina,-7.1911,-48.2072,20.91,92,89,3.68,BR,1702882241
465,mthatha,-31.5889,28.7844,18.31,94,75,3.6,ZA,1702882472
466,phang nga,8.4509,98.5298,32.02,49,74,3.36,TH,1702882472
467,fada,9.5667,8.3,21.64,24,0,2.24,NG,1702882473
468,mesyagutovo,55.5303,58.2528,-10.45,89,100,3.22,RU,1702882473
469,luza,60.6308,47.2512,-5.46,97,100,2.15,RU,1702882474
470,opuwo,-18.0607,13.84,28.34,18,100,3.26,NA,1702882474
471,sretensk,52.2453,117.7093,-28.45,90,81,1.01,RU,1702882475
472,n'zeto,-7.2312,12.8666,25.97,87,100,1.61,AO,1702882475
473,nemuro,43.3236,145.575,-3.8,58,73,10.37,JP,1702882476
474,orapa,-21.2833,25.3667,26.38,58,94,3.1,BW,1702882477
475,crane,31.3974,-102.3501,10.68,42,11,3.88,US,1702882477
476,obock,12.25,43.0833,22.1,52,100,10.06,DJ,1702882478
477,st. john's,47.5649,-52.7093,2.31,87,100,10.8,CA,1702882479
478,penafiel,41.2084,-8.2829,3.34,63,0,1.76,PT,1702882479
479,musan-up,42.2261,129.2078,-12.47,66,50,3.3,KP,1702882480
480,port-vila,-17.7338,168.3219,27.78,89,75,6.69,VU,1702882480
481,noumea,-22.2763,166.4572,25.99,79,100,7.01,NC,1702882438
482,bodo,67.28,14.405,5.02,91,75,12.35,NO,1702882481
483,quellon,-43.1167,-73.6167,5.85,87,3,2.1,CL,1702882482
484,kathmandu,27.7167,85.3167,18.12,39,40,1.54,NP,1702882455
485,sidney,-33.8679,151.2073,31.44,76,75,7.2,AU,1702882314
486,altamira,-3.2033,-52.2064,23.06,93,13,1.24,BR,1702882484
487,kisangani,0.5167,25.2,27.93,65,100,1.26,CD,1702882485
488,ierapetra,35.01,25.7353,15.08,67,8,4.02,GR,1702882485
489,myingyan,21.4667,95.3833,27.31,51,11,1.04,MM,1702882486
490,queenstown,-31.8976,26.8753,23.41,56,49,0.4,ZA,1702882102
491,zarand,30.8127,56.564,16.54,12,3,2.6,IR,1702882486
492,taulaga,-11.0553,-171.0883,28.78,74,98,1.72,AS,1702882488
493,tqvarch'eli,42.8404,41.6801,4.86,73,93,0.75,GE,1702882488
494,igreja,15.0333,-24.3333,22.24,66,2,3.64,CV,1702882489
495,tynda,55.1667,124.7167,-26.77,84,100,1.56,RU,1702882489
496,amasra,41.7463,32.3863,5.51,70,99,3.46,TR,1702882489
497,sarankhola,22.3082,89.7897,26.07,34,24,2.56,BD,1702882490
498,matsue,35.4722,133.0506,7.0,56,75,4.63,JP,1702882490
499,port moresby,-9.4431,147.1797,30.68,70,40,5.14,PG,1702882396
500,wynyard,-41.0,145.7167,14.81,97,100,5.93,AU,1702882492
501,laayoune,27.1622,-13.2032,13.19,38,91,4.63,EH,1702882269
502,manicore,-5.8092,-61.3003,23.02,97,100,0.38,BR,1702882493
503,mulayjah,27.271,48.4242,19.11,51,62,1.86,SA,1702882494
504,bilbays,30.4204,31.5622,17.46,66,7,4.64,EG,1702882494
505,metro,-5.1131,105.3067,34.22,44,60,3.39,ID,1702882495
506,ust'-kalmanka,52.1207,83.305,-16.23,81,3,3.26,RU,1702882495
507,maloye ganyushkino,46.6,49.2667,-0.84,80,87,7.8,KZ,1702882496
508,san fernando,15.0286,120.6898,28.85,57,62,8.04,PH,1702882496
509,ambodifotatra,-16.9833,49.85,29.03,89,75,2.06,MG,1702882497
510,horta,38.5333,-28.6333,17.23,98,99,4.47,PT,1702882498
511,westport,41.1415,-73.3579,14.75,90,100,6.26,US,1702882498
512,slave lake,55.2834,-114.769,-8.01,79,100,2.06,CA,1702882499
513,namibe,-15.1961,12.1522,21.85,74,93,3.1,AO,1702882499
514,takoradi,4.8845,-1.7554,26.05,83,65,1.97,GH,1702882211
515,intendente alvear,-35.2338,-63.592,15.34,45,1,6.18,AR,1702882500
516,choszczno,53.169,15.4205,6.75,79,100,6.78,PL,1702882501
517,mikuni,36.2171,136.1519,2.95,75,100,3.33,JP,1702882501
518,chilca,-12.5211,-76.7372,19.63,93,100,2.64,PE,1702882502
519,apolinario saravia,-24.4328,-63.9954,25.95,64,87,0.74,AR,1702882503
520,laguna,38.421,-121.4238,11.21,87,100,2.57,US,1702882503
521,egersund,58.4513,5.9997,6.88,96,100,2.35,NO,1702882415
522,keflavik,64.0049,-22.5624,1.24,93,75,4.12,IS,1702882226
523,cruzeiro do sul,-29.5128,-51.9853,26.96,88,1,1.63,BR,1702882504
524,lalsot,26.5667,76.3333,21.98,24,7,2.13,IN,1702882505
525,kingston,17.997,-76.7936,25.53,88,40,1.03,JM,1702882505
526,dombarovskiy,50.7587,59.5386,-8.33,88,100,3.13,RU,1702882506
527,thinadhoo,0.5333,72.9333,28.78,74,47,4.93,MV,1702882506
528,kiziltepe,37.1933,40.585,7.69,31,0,5.95,TR,1702882455
529,kosong,38.3788,128.4676,-1.73,36,100,0.63,KR,1702882507
530,tsiombe,-25.3,45.4833,30.09,45,3,5.21,MG,1702882508
531,copala,16.65,-98.9833,24.75,85,11,1.43,MX,1702882508
532,lodja,-3.4833,23.4333,22.31,99,100,0.84,CD,1702882509
533,whangarei,-35.7317,174.3239,19.35,88,100,0.66,NZ,1702882509
534,katsuura,35.1333,140.3,10.03,39,100,2.18,JP,1702882510
535,rabaul,-4.1967,152.1721,28.14,79,99,4.5,PG,1702882511
536,santa terezinha,-29.9002,-50.0904,22.82,94,90,3.68,BR,1702882511
537,paraiso,9.8383,-83.8656,18.86,97,100,2.06,CR,1702882512
538,nova sintra,14.8667,-24.7167,21.54,64,32,3.42,CV,1702882512
539,jounieh,33.9808,35.6178,19.46,59,0,1.43,LB,1702882343
540,deba,10.2086,11.3859,22.54,22,11,3.15,NG,1702882513
541,lorengau,-2.0226,147.2712,28.18,80,83,3.33,PG,1702882513
542,xining,36.6167,101.7667,-3.19,52,27,1.91,CN,1702882514
543,buka,40.8108,69.1986,9.16,43,100,1.04,UZ,1702882514
544,myeik,12.4333,98.6,32.7,49,81,1.35,MM,1702882515
545,bireun,5.203,96.7009,28.66,75,70,3.14,ID,1702882515
546,lubumbashi,-11.6609,27.4794,25.61,64,100,1.03,CD,1702882515
547,kalifornsky,60.4183,-151.29,-1.81,100,40,2.06,US,1702882516
548,the pas,53.8251,-101.2541,-19.99,77,0,2.06,CA,1702882516
549,balaipungut,1.05,101.2833,27.53,89,100,1.16,ID,1702882517
550,basoko,1.2391,23.616,27.93,63,46,1.81,CD,1702882517
551,grand falls-windsor,48.9332,-55.6649,1.95,84,100,0.89,CA,1702882518
552,bemidji,47.4736,-94.8803,-9.13,70,0,8.75,US,1702882518
553,borogontsy,62.6683,131.1683,-45.11,100,100,0.41,RU,1702882518
554,zuni pueblo,35.0725,-108.8506,4.92,40,99,2.1,US,1702882519
555,coeur d'alene,47.6777,-116.7805,-0.11,97,100,5.14,US,1702882519
556,selfoss,63.9331,-20.9971,0.02,88,100,2.01,IS,1702882520
557,nytva,57.9404,55.334,-9.06,94,100,5.21,RU,1702882520
558,roma,43.2128,-75.4557,9.93,98,100,3.09,US,1702882521
559,svetlyy,54.675,20.1347,7.03,95,100,8.12,RU,1702882521
560,petersaurach,49.3,10.75,-3.89,74,0,2.06,DE,1702882522
561,atchison,39.563,-95.1216,2.96,71,0,5.81,US,1702882522
562,padang,-0.9492,100.3543,30.03,87,100,2.52,ID,1702882434
563,konstantinovka,49.6167,127.9833,-26.52,90,12,0.9,RU,1702882223
564,kayangel,8.0823,134.7173,28.46,77,74,8.2,PW,1702882523
565,la ronge,55.1001,-105.2842,-12.86,85,40,3.6,CA,1702882524
566,galle,6.0367,80.217,28.59,74,80,3.09,LK,1702882525
567,pervomayskoye,43.919,46.7102,2.57,70,100,5.45,RU,1702882525
568,formosa,-26.1775,-58.1781,29.99,75,0,4.63,AR,1702882526
569,saraipali,21.3333,83.0,23.74,37,99,2.03,IN,1702882526
570,ulysses,37.5814,-101.3552,2.02,75,0,6.17,US,1702882527
571,sitia,35.2,26.0986,14.99,70,84,8.48,GR,1702882527
572,nouadhibou,20.931,-17.0347,16.99,31,100,9.26,MR,1702882527
573,masterton,-40.9597,175.6575,15.86,79,93,2.0,NZ,1702882528
574,vallegrande,-18.4897,-64.1069,15.17,96,100,2.13,BO,1702882528
575,qulsary,46.9531,54.0198,-3.66,77,12,4.22,KZ,1702882529
576,gornji grad,46.2953,14.8083,2.16,91,9,1.38,SI,1702882529
577,smara,26.7384,-11.6719,10.43,37,1,4.82,EH,1702882530
578,sarpol-e zahab,34.4611,45.8626,15.3,37,100,1.2,IR,1702882530
579,praia da vitoria,38.7333,-27.0667,19.14,88,20,6.36,PT,1702882531
580,banda aceh,5.5577,95.3222,27.75,80,90,1.64,ID,1702882531
581,kapa'a,22.0752,-159.319,21.18,82,75,7.2,US,1702882532
582,geraldton,-28.7667,114.6,29.23,45,8,10.29,AU,1702882532
583,baruun-urt,46.6806,113.2792,-20.78,90,100,3.22,MN,1702882533
584,saynshand,44.8824,110.1163,-17.77,90,100,3.96,MN,1702882533
585,shingu,33.7333,135.9833,8.72,50,100,0.47,JP,1702882533
586,stony plain,53.5334,-114.0021,-3.65,81,75,4.12,CA,1702882534
587,pucallpa,-8.3791,-74.5539,24.02,100,75,0.0,PE,1702882334
